{
  "data": [{"cameraID":"KCAM001","title":"SR 1 @ MILFORD NECK ROAD (NORTH OFF)","description":null,"keyRequired":false,"streamSource":"http://167.21.72.35:1935/live/KCAM001.stream/playlist.m3u8","imageSrouce":null,"latitude":38.990771,"longitude":-75.448487,"status":true,"state":"DE","additional":"Kent"},{"cameraID":"KCAM002","title":"W NORTH STREET @ WEST DOVER CONNECTOR","description":null,"keyRequired":false,"streamSource":"http://167.21.72.35:1935/live/KCAM002.stream/playlist.m3u8","imageSrouce":null,"latitude":39.153362,"longitude":-75.542102,"status":true,"state":"DE","additional":"Kent"},{"cameraID":"KCAM003","title":"US 13 (SB) @ WEST DOVER CONNECTOR","description":null,"keyRequired":false,"streamSource":"http://167.21.72.35:1935/live/KCAM003.stream/playlist.m3u8","imageSrouce":null,"latitude":39.124642,"longitude":-75.532336,"status":true,"state":"DE","additional":"Kent"},{"cameraID":"KCAM004","title":"US 13 @ RD 88","description":null,"keyRequired":false,"streamSource":"http://167.21.72.35:1935/live/KCAM004.stream/playlist.m3u8","imageSrouce":null,"latitude":39.180998,"longitude":-75.529771,"status":true,"state":"DE","additional":"Kent"},{"cameraID":"KCAM005","title":"NEW BURTON RD S @ WEST DOVER CONNECTOR","description":null,"keyRequired":false,"streamSource":"http://167.21.72.35:1935/live/KCAM005.stream/playlist.m3u8","imageSrouce":null,"latitude":39.129917,"longitude":-75.54346,"status":true,"state":"DE","additional":"Kent"},{"cameraID":"KCAM020","title":"US 13 @ HARRINGTON FAIR RD - HARRINGTON","description":null,"keyRequired":false,"streamSource":"http://167.21.72.35:1935/live/KCAM020.stream/playlist.m3u8","imageSrouce":null,"latitude":38.908166,"longitude":-75.569731,"status":true,"state":"DE","additional":"Kent"},{"cameraID":"KCAM021","title":"US 13 @ RD 315 (TOWER HILL RD)","description":null,"keyRequired":false,"streamSource":"http://167.21.72.35:1935/live/KCAM021.stream/playlist.m3u8","imageSrouce":null,"latitude":38.89491,"longitude":-75.571382,"status":true,"state":"DE","additional":"Kent"},{"cameraID":"KCAM024","title":"DOVER DOWNS @ DOVER DOWNS","description":null,"keyRequired":false,"streamSource":"http://167.21.72.35:1935/live/KCAM024.stream/playlist.m3u8","imageSrouce":null,"latitude":39.189323,"longitude":-75.527593,"status":true,"state":"DE","additional":"Kent"},{"cameraID":"KCAM025","title":"SR 1 & MAIN TOLL PLAZA","description":null,"keyRequired":false,"streamSource":"http://167.21.72.35:1935/live/KCAM025.stream/playlist.m3u8","imageSrouce":null,"latitude":39.18481,"longitude":-75.515299,"status":true,"state":"DE","additional":"Kent"},{"cameraID":"KCAM027","title":"US 13 @ SCARBOROUGH RD","description":null,"keyRequired":false,"streamSource":"http://167.21.72.35:1935/live/KCAM027.stream/playlist.m3u8","imageSrouce":null,"latitude":39.200015,"longitude":-75.556265,"status":true,"state":"DE","additional":"Kent"},{"cameraID":"KCAM028","title":"US 13 @ TOWNSEND BLVD","description":null,"keyRequired":false,"streamSource":"http://167.21.72.35:1935/live/KCAM028.stream/playlist.m3u8","imageSrouce":null,"latitude":39.174683,"longitude":-75.522474,"status":true,"state":"DE","additional":"Kent"},{"cameraID":"KCAM029","title":"US 13 @ WHITE OAK RD","description":null,"keyRequired":false,"streamSource":"http://167.21.72.35:1935/live/KCAM029.stream/playlist.m3u8","imageSrouce":null,"latitude":39.168512,"longitude":-75.516881,"status":true,"state":"DE","additional":"Kent"},{"cameraID":"KCAM030","title":"US 13 @ DIVISION ST","description":null,"keyRequired":false,"streamSource":"http://167.21.72.35:1935/live/KCAM030.stream/playlist.m3u8","imageSrouce":null,"latitude":39.163386,"longitude":-75.515487,"status":true,"state":"DE","additional":"Kent"},{"cameraID":"KCAM031","title":"DE 8 @ SAULSBURY RD","description":null,"keyRequired":false,"streamSource":"http://167.21.72.35:1935/live/KCAM031.stream/playlist.m3u8","imageSrouce":null,"latitude":39.159117,"longitude":-75.542656,"status":true,"state":"DE","additional":"Kent"},{"cameraID":"KCAM032","title":"US 13 & BAY RD","description":null,"keyRequired":false,"streamSource":"http://167.21.72.35:1935/live/KCAM032.stream/playlist.m3u8","imageSrouce":null,"latitude":39.158657,"longitude":-75.51146,"status":true,"state":"DE","additional":"Kent"},{"cameraID":"KCAM086","title":"US 13 @ DOVER DOWNS (ENT)","description":null,"keyRequired":false,"streamSource":"http://167.21.72.35:1935/live/KCAM086.stream/playlist.m3u8","imageSrouce":null,"latitude":39.1866,"longitude":-75.5364,"status":true,"state":"DE","additional":"Kent"},{"cameraID":"KCAM090","title":"SR 1 & TOLL RAMP E (S. SMYRNA)","description":null,"keyRequired":false,"streamSource":"http://167.21.72.35:1935/live/KCAM090.stream/playlist.m3u8","imageSrouce":null,"latitude":39.281918,"longitude":-75.59127,"status":true,"state":"DE","additional":"Kent"},{"cameraID":"KCAM091","title":"US 13 @ DE 300","description":null,"keyRequired":false,"streamSource":"http://167.21.72.35:1935/live/KCAM091.stream/playlist.m3u8","imageSrouce":null,"latitude":39.306505,"longitude":-75.607302,"status":true,"state":"DE","additional":"Kent"},{"cameraID":"KCAM092","title":"DE 1 @ Thompsonville Rd","description":null,"keyRequired":false,"streamSource":"http://167.21.72.35:1935/live/KCAM092.stream/playlist.m3u8","imageSrouce":null,"latitude":38.957405,"longitude":-75.427714,"status":true,"state":"DE","additional":"Kent"},{"cameraID":"KCAM102","title":"US 13 (SB) @ SR 14","description":null,"keyRequired":false,"streamSource":"http://167.21.72.35:1935/live/KCAM102.stream/playlist.m3u8","imageSrouce":null,"latitude":38.923876,"longitude":-75.567883,"status":true,"state":"DE","additional":"Kent"},{"cameraID":"KCAM103","title":"US 13 @ DE 14","description":null,"keyRequired":false,"streamSource":"http://167.21.72.35:1935/live/KCAM103.stream/playlist.m3u8","imageSrouce":null,"latitude":38.923992,"longitude":-75.566596,"status":true,"state":"DE","additional":"Kent"},{"cameraID":"KCAM109","title":"SR 1 @ SCARBOROUGH RD","description":null,"keyRequired":false,"streamSource":"http://167.21.72.35:1935/live/KCAM109.stream/playlist.m3u8","imageSrouce":null,"latitude":39.206545,"longitude":-75.544608,"status":true,"state":"DE","additional":"Kent"},{"cameraID":"KCAM110","title":"BAY RD & PUNCHEON RUN","description":null,"keyRequired":false,"streamSource":"http://167.21.72.35:1935/live/KCAM110.stream/playlist.m3u8","imageSrouce":null,"latitude":39.145994,"longitude":-75.500362,"status":true,"state":"DE","additional":"Kent"},{"cameraID":"KCAM111","title":"SR1 & BOWERS BEACH RD (RD18)","description":null,"keyRequired":false,"streamSource":"http://167.21.72.35:1935/live/KCAM111.stream/playlist.m3u8","imageSrouce":null,"latitude":39.04152,"longitude":-75.45568,"status":true,"state":"DE","additional":"Kent"},{"cameraID":"KCAM124","title":"US 13 @ PUNCHEON RUN RAMP","description":null,"keyRequired":false,"streamSource":"http://167.21.72.35:1935/live/KCAM124.stream/playlist.m3u8","imageSrouce":null,"latitude":39.13864,"longitude":-75.522454,"status":true,"state":"DE","additional":"Kent"},{"cameraID":"KCAM125","title":"US 13 @ SR 10","description":null,"keyRequired":false,"streamSource":"http://167.21.72.35:1935/live/KCAM125.stream/playlist.m3u8","imageSrouce":null,"latitude":39.113145,"longitude":-75.537258,"status":true,"state":"DE","additional":"Kent"},{"cameraID":"KCAM126","title":"BAY RD @ DE 10","description":null,"keyRequired":false,"streamSource":"http://167.21.72.35:1935/live/KCAM126.stream/playlist.m3u8","imageSrouce":null,"latitude":39.1311,"longitude":-75.4923,"status":true,"state":"DE","additional":"Kent"},{"cameraID":"KCAM127","title":"SR 1 @ SR 9 INTERCHANGE","description":null,"keyRequired":false,"streamSource":"http://167.21.72.35:1935/live/KCAM127.stream/playlist.m3u8","imageSrouce":null,"latitude":39.105334,"longitude":-75.454272,"status":true,"state":"DE","additional":"Kent"},{"cameraID":"KCAM128","title":"DE 1 @ N FREDERICA INTERCHANGE","description":null,"keyRequired":false,"streamSource":"http://167.21.72.35:1935/live/KCAM128.stream/playlist.m3u8","imageSrouce":null,"latitude":39.014672,"longitude":-75.461172,"status":true,"state":"DE","additional":"Kent"},{"cameraID":"KCAM129","title":"DE 8 @ DE 44","description":null,"keyRequired":false,"streamSource":"http://167.21.72.35:1935/live/KCAM129.stream/playlist.m3u8","imageSrouce":null,"latitude":39.153863,"longitude":-75.649249,"status":true,"state":"DE","additional":"Kent"},{"cameraID":"KCAM147","title":"DE 300 @ CARTER RD","description":null,"keyRequired":false,"streamSource":"http://167.21.72.35:1935/live/KCAM147.stream/playlist.m3u8","imageSrouce":null,"latitude":39.293638,"longitude":-75.622309,"status":true,"state":"DE","additional":"Kent"},{"cameraID":"KCAM159","title":"DE 1 @ TRAP SHOOTERS RD","description":null,"keyRequired":false,"streamSource":"http://167.21.72.35:1935/live/KCAM159.stream/playlist.m3u8","imageSrouce":null,"latitude":39.084873,"longitude":-75.457562,"status":true,"state":"DE","additional":"Kent"},{"cameraID":"KCAM161","title":"CLAPHAM @ BUFFALO","description":null,"keyRequired":false,"streamSource":"http://167.21.72.35:1935/live/KCAM161.stream/playlist.m3u8","imageSrouce":null,"latitude":39.051762,"longitude":-75.459917,"status":true,"state":"DE","additional":"Kent"},{"cameraID":"KCAM162","title":"US 13 @ JEFFERIC BLVD","description":null,"keyRequired":false,"streamSource":"http://167.21.72.35:1935/live/KCAM162.stream/playlist.m3u8","imageSrouce":null,"latitude":39.177945,"longitude":-75.526017,"status":true,"state":"DE","additional":"Kent"},{"cameraID":"KCAM163","title":"BOWERS BEACH ROAD @ BAY ROAD","description":null,"keyRequired":false,"streamSource":"http://167.21.72.35:1935/live/KCAM163.stream/playlist.m3u8","imageSrouce":null,"latitude":39.041558,"longitude":-75.457299,"status":true,"state":"DE","additional":"Kent"},{"cameraID":"NCAM001","title":"I 95 @ SR 141 (ON RAMP)","description":null,"keyRequired":false,"streamSource":"http://167.21.72.35:1935/live/NCAM001.stream/playlist.m3u8","imageSrouce":null,"latitude":39.700253,"longitude":-75.60295,"status":true,"state":"DE","additional":"New Castle"},{"cameraID":"NCAM002","title":"SR 1 NB RAMP @ FASHION BV","description":null,"keyRequired":false,"streamSource":"http://167.21.72.35:1935/live/NCAM002.stream/playlist.m3u8","imageSrouce":null,"latitude":39.672962,"longitude":-75.651032,"status":true,"state":"DE","additional":"New Castle"},{"cameraID":"NCAM005","title":"SR 1 @ RAMP B1 TO I 95 NB","description":null,"keyRequired":false,"streamSource":"http://167.21.72.35:1935/live/NCAM005.stream/playlist.m3u8","imageSrouce":null,"latitude":39.6844,"longitude":-75.6537,"status":true,"state":"DE","additional":"New Castle"},{"cameraID":"NCAM006","title":"I 95 @ SR 273","description":null,"keyRequired":false,"streamSource":"http://167.21.72.35:1935/live/NCAM006.stream/playlist.m3u8","imageSrouce":null,"latitude":39.671952,"longitude":-75.675288,"status":true,"state":"DE","additional":"New Castle"},{"cameraID":"NCAM008","title":"I 95 @ SOUTH OF SR 141","description":null,"keyRequired":false,"streamSource":"http://167.21.72.35:1935/live/NCAM008.stream/playlist.m3u8","imageSrouce":null,"latitude":39.696957,"longitude":-75.615329,"status":true,"state":"DE","additional":"New Castle"},{"cameraID":"NCAM015","title":"DEL. RT. 7 & DEL. RT. 72","description":null,"keyRequired":false,"streamSource":"http://167.21.72.35:1935/live/NCAM015.stream/playlist.m3u8","imageSrouce":null,"latitude":39.750525,"longitude":-75.702943,"status":true,"state":"DE","additional":"New Castle"},{"cameraID":"NCAM016","title":"US 40 @ DE 1 SB RMP","description":null,"keyRequired":false,"streamSource":"http://167.21.72.35:1935/live/NCAM016.stream/playlist.m3u8","imageSrouce":null,"latitude":39.635502,"longitude":-75.654559,"status":true,"state":"DE","additional":"New Castle"},{"cameraID":"NCAM017","title":"US 40 @ DE 896","description":null,"keyRequired":false,"streamSource":"http://167.21.72.35:1935/live/NCAM017.stream/playlist.m3u8","imageSrouce":null,"latitude":39.605802,"longitude":-75.741832,"status":true,"state":"DE","additional":"New Castle"},{"cameraID":"NCAM018","title":"US 13 @ BOYDS CORNER","description":null,"keyRequired":false,"streamSource":"http://167.21.72.35:1935/live/NCAM018.stream/playlist.m3u8","imageSrouce":null,"latitude":39.499757,"longitude":-75.649024,"status":true,"state":"DE","additional":"New Castle"},{"cameraID":"NCAM019","title":"US 13 @ US 40","description":null,"keyRequired":false,"streamSource":"http://167.21.72.35:1935/live/NCAM019.stream/playlist.m3u8","imageSrouce":null,"latitude":39.653743,"longitude":-75.617641,"status":true,"state":"DE","additional":"New Castle"},{"cameraID":"NCAM022","title":"US 13 @ PINE TREE RD","description":null,"keyRequired":false,"streamSource":"http://167.21.72.35:1935/live/NCAM022.stream/playlist.m3u8","imageSrouce":null,"latitude":39.406927,"longitude":-75.661988,"status":true,"state":"DE","additional":"New Castle"},{"cameraID":"NCAM023","title":"US 40 @ DE 72","description":null,"keyRequired":false,"streamSource":"http://167.21.72.35:1935/live/NCAM023.stream/playlist.m3u8","imageSrouce":null,"latitude":39.60842,"longitude":-75.715159,"status":true,"state":"DE","additional":"New Castle"},{"cameraID":"NCAM034","title":"DEL. RT. 273 & DEL. RT. 1 S.B. OFF RAMP","description":null,"keyRequired":false,"streamSource":"http://167.21.72.35:1935/live/NCAM034.stream/playlist.m3u8","imageSrouce":null,"latitude":39.661268,"longitude":-75.653104,"status":true,"state":"DE","additional":"New Castle"},{"cameraID":"NCAM035","title":"DEL. RT. 273 & CHAPMAN RD / EAGLE RUN","description":null,"keyRequired":false,"streamSource":"http://167.21.72.35:1935/live/NCAM035.stream/playlist.m3u8","imageSrouce":null,"latitude":39.668527,"longitude":-75.670852,"status":true,"state":"DE","additional":"New Castle"},{"cameraID":"NCAM036","title":"DE 273 @ HARMONY RD","description":null,"keyRequired":false,"streamSource":"http://167.21.72.35:1935/live/NCAM036.stream/playlist.m3u8","imageSrouce":null,"latitude":39.675123,"longitude":-75.680185,"status":true,"state":"DE","additional":"New Castle"},{"cameraID":"NCAM037","title":"DEL. RT. 273 & DEL. RT. 4 / STANTON-OGLETOWN RD","description":null,"keyRequired":false,"streamSource":"http://167.21.72.35:1935/live/NCAM037.stream/playlist.m3u8","imageSrouce":null,"latitude":39.679189,"longitude":-75.694585,"status":true,"state":"DE","additional":"New Castle"},{"cameraID":"NCAM039","title":"DE 7 @ DE 4 STANTON","description":null,"keyRequired":false,"streamSource":"http://167.21.72.35:1935/live/NCAM039.stream/playlist.m3u8","imageSrouce":null,"latitude":39.712187,"longitude":-75.648171,"status":true,"state":"DE","additional":"New Castle"},{"cameraID":"NCAM040","title":"DE 7 @ DE 4 MORGAN","description":null,"keyRequired":false,"streamSource":"http://167.21.72.35:1935/live/NCAM040.stream/playlist.m3u8","imageSrouce":null,"latitude":39.697116,"longitude":-75.651218,"status":true,"state":"DE","additional":"New Castle"},{"cameraID":"NCAM041","title":"SR 7 @ NEW CHURCHMANS RD","description":null,"keyRequired":false,"streamSource":"http://167.21.72.35:1935/live/NCAM041.stream/playlist.m3u8","imageSrouce":null,"latitude":39.688998,"longitude":-75.654988,"status":true,"state":"DE","additional":"New Castle"},{"cameraID":"NCAM042","title":"DEL. RT. 4 & HARMONY RD","description":null,"keyRequired":false,"streamSource":"http://167.21.72.35:1935/live/NCAM042.stream/playlist.m3u8","imageSrouce":null,"latitude":39.685305,"longitude":-75.681961,"status":true,"state":"DE","additional":"New Castle"},{"cameraID":"NCAM043","title":"DEL. RT. 4 & NEW CHURCHMANS RD (DEL PARK ENT.)","description":null,"keyRequired":false,"streamSource":"http://167.21.72.35:1935/live/NCAM043.stream/playlist.m3u8","imageSrouce":null,"latitude":39.693244,"longitude":-75.669314,"status":true,"state":"DE","additional":"New Castle"},{"cameraID":"NCAM046","title":"CHRISTIANA MALL @ TEMP RING RD","description":null,"keyRequired":false,"streamSource":"http://167.21.72.35:1935/live/NCAM046.stream/playlist.m3u8","imageSrouce":null,"latitude":39.678268,"longitude":-75.656201,"status":true,"state":"DE","additional":"New Castle"},{"cameraID":"NCAM048","title":"US 202 @ NAAMANS RD","description":null,"keyRequired":false,"streamSource":"http://167.21.72.35:1935/live/NCAM048.stream/playlist.m3u8","imageSrouce":null,"latitude":39.828616,"longitude":-75.544773,"status":true,"state":"DE","additional":"New Castle"},{"cameraID":"NCAM049","title":"US 202 @ SILVERSIDE RD","description":null,"keyRequired":false,"streamSource":"http://167.21.72.35:1935/live/NCAM049.stream/playlist.m3u8","imageSrouce":null,"latitude":39.80937,"longitude":-75.549867,"status":true,"state":"DE","additional":"New Castle"},{"cameraID":"NCAM050","title":"US 202 @ MURPHY RD","description":null,"keyRequired":false,"streamSource":"http://167.21.72.35:1935/live/NCAM050.stream/playlist.m3u8","imageSrouce":null,"latitude":39.785073,"longitude":-75.5464,"status":true,"state":"DE","additional":"New Castle"},{"cameraID":"NCAM051","title":"FOULK RD @ SILVERSIDE RD","description":null,"keyRequired":false,"streamSource":"http://167.21.72.35:1935/live/NCAM051.stream/playlist.m3u8","imageSrouce":null,"latitude":39.808416,"longitude":-75.51529,"status":true,"state":"DE","additional":"New Castle"},{"cameraID":"NCAM052","title":"DE 92 @ FOULK RD","description":null,"keyRequired":false,"streamSource":"http://167.21.72.35:1935/live/NCAM052.stream/playlist.m3u8","imageSrouce":null,"latitude":39.824597,"longitude":-75.501276,"status":true,"state":"DE","additional":"New Castle"},{"cameraID":"NCAM053","title":"MARSHALL ST @ JUSTIS ST","description":null,"keyRequired":false,"streamSource":"http://167.21.72.35:1935/live/NCAM053.stream/playlist.m3u8","imageSrouce":null,"latitude":39.714619,"longitude":-75.609044,"status":true,"state":"DE","additional":"New Castle"},{"cameraID":"NCAM054","title":"I 495 @ 12TH STREET / BRANDYWINE","description":null,"keyRequired":false,"streamSource":"http://167.21.72.35:1935/live/NCAM054.stream/playlist.m3u8","imageSrouce":null,"latitude":39.735298,"longitude":-75.521349,"status":true,"state":"DE","additional":"New Castle"},{"cameraID":"NCAM055","title":"I 495 @ I 495 OFF-RAMP TO TERMINAL AVE","description":null,"keyRequired":false,"streamSource":"http://167.21.72.35:1935/live/NCAM055.stream/playlist.m3u8","imageSrouce":null,"latitude":39.718569,"longitude":-75.542489,"status":true,"state":"DE","additional":"New Castle"},{"cameraID":"NCAM056","title":"GOV PRINTZ BLVD @ EDGEMOOR RD","description":null,"keyRequired":false,"streamSource":"http://167.21.72.35:1935/live/NCAM056.stream/playlist.m3u8","imageSrouce":null,"latitude":39.7538,"longitude":-75.5003,"status":true,"state":"DE","additional":"New Castle"},{"cameraID":"NCAM057","title":"US 13 @ I-495 RAMP","description":null,"keyRequired":false,"streamSource":"http://167.21.72.35:1935/live/NCAM057.stream/playlist.m3u8","imageSrouce":null,"latitude":39.8064,"longitude":-75.4511,"status":true,"state":"DE","additional":"New Castle"},{"cameraID":"NCAM058","title":"I 95 @ SR 92 (NAAMANS RD)","description":null,"keyRequired":false,"streamSource":"http://167.21.72.35:1935/live/NCAM058.stream/playlist.m3u8","imageSrouce":null,"latitude":39.815739,"longitude":-75.453729,"status":true,"state":"DE","additional":"New Castle"},{"cameraID":"NCAM059","title":"I 95 @ US 202","description":null,"keyRequired":false,"streamSource":"http://167.21.72.35:1935/live/NCAM059.stream/playlist.m3u8","imageSrouce":null,"latitude":39.766975,"longitude":-75.543028,"status":true,"state":"DE","additional":"New Castle"},{"cameraID":"NCAM060","title":"DE 141 @ DUPONT EXPER STA","description":null,"keyRequired":false,"streamSource":"http://167.21.72.35:1935/live/NCAM060.stream/playlist.m3u8","imageSrouce":null,"latitude":39.773272,"longitude":-75.5766,"status":true,"state":"DE","additional":"New Castle"},{"cameraID":"NCAM062","title":"SR 141 @ SR 52 - GREENVILLE","description":null,"keyRequired":false,"streamSource":"http://167.21.72.35:1935/live/NCAM062.stream/playlist.m3u8","imageSrouce":null,"latitude":39.772637,"longitude":-75.592228,"status":true,"state":"DE","additional":"New Castle"},{"cameraID":"NCAM063","title":"US 13 BR @ 12TH STREET","description":null,"keyRequired":false,"streamSource":"http://167.21.72.35:1935/live/NCAM063.stream/playlist.m3u8","imageSrouce":null,"latitude":39.7439,"longitude":-75.5366,"status":true,"state":"DE","additional":"New Castle"},{"cameraID":"NCAM064","title":"PHILADELPHIA PIKE @ WASHINGTON ST. EXT.","description":null,"keyRequired":false,"streamSource":"http://167.21.72.35:1935/live/NCAM064.stream/playlist.m3u8","imageSrouce":null,"latitude":39.769399,"longitude":-75.503084,"status":true,"state":"DE","additional":"New Castle"},{"cameraID":"NCAM065","title":"BUS 13 @ HOLLY OAK RD","description":null,"keyRequired":false,"streamSource":"http://167.21.72.35:1935/live/NCAM065.stream/playlist.m3u8","imageSrouce":null,"latitude":39.785058,"longitude":-75.477881,"status":true,"state":"DE","additional":"New Castle"},{"cameraID":"NCAM066","title":"PHILADELPHIA PIKE @ GOV PRINTZ BLVD","description":null,"keyRequired":false,"streamSource":"http://167.21.72.35:1935/live/NCAM066.stream/playlist.m3u8","imageSrouce":null,"latitude":39.800926,"longitude":-75.459907,"status":true,"state":"DE","additional":"New Castle"},{"cameraID":"NCAM067","title":"I 495 @ NORTH SLIP RAMPS/YALE AVENUE","description":null,"keyRequired":false,"streamSource":"http://167.21.72.35:1935/live/NCAM067.stream/playlist.m3u8","imageSrouce":null,"latitude":39.79334,"longitude":-75.459948,"status":true,"state":"DE","additional":"New Castle"},{"cameraID":"NCAM068","title":"I 495 @ BELLEVUE RD","description":null,"keyRequired":false,"streamSource":"http://167.21.72.35:1935/live/NCAM068.stream/playlist.m3u8","imageSrouce":null,"latitude":39.770932,"longitude":-75.483384,"status":true,"state":"DE","additional":"New Castle"},{"cameraID":"NCAM069","title":"DE 273 @ LIBRARY AVE","description":null,"keyRequired":false,"streamSource":"http://167.21.72.35:1935/live/NCAM069.stream/playlist.m3u8","imageSrouce":null,"latitude":39.684499,"longitude":-75.7368,"status":true,"state":"DE","additional":"New Castle"},{"cameraID":"NCAM070","title":"DE 2 @ S COLLEGE AVE","description":null,"keyRequired":false,"streamSource":"http://167.21.72.35:1935/live/NCAM070.stream/playlist.m3u8","imageSrouce":null,"latitude":39.683009,"longitude":-75.753659,"status":true,"state":"DE","additional":"New Castle"},{"cameraID":"NCAM071","title":"DE 4 @ DE 896","description":null,"keyRequired":false,"streamSource":"http://167.21.72.35:1935/live/NCAM071.stream/playlist.m3u8","imageSrouce":null,"latitude":39.65851,"longitude":-75.751795,"status":true,"state":"DE","additional":"New Castle"},{"cameraID":"NCAM072","title":"DE 4 @ DE 2","description":null,"keyRequired":false,"streamSource":"http://167.21.72.35:1935/live/NCAM072.stream/playlist.m3u8","imageSrouce":null,"latitude":39.665543,"longitude":-75.776058,"status":true,"state":"DE","additional":"New Castle"},{"cameraID":"NCAM073","title":"US 13 @ DE 273","description":null,"keyRequired":false,"streamSource":"http://167.21.72.35:1935/live/NCAM073.stream/playlist.m3u8","imageSrouce":null,"latitude":39.665042,"longitude":-75.604381,"status":true,"state":"DE","additional":"New Castle"},{"cameraID":"NCAM074","title":"US 13 @ BOULDEN BLVD","description":null,"keyRequired":false,"streamSource":"http://167.21.72.35:1935/live/NCAM074.stream/playlist.m3u8","imageSrouce":null,"latitude":39.690091,"longitude":-75.581047,"status":true,"state":"DE","additional":"New Castle"},{"cameraID":"NCAM075","title":"I 495 @ US 13 - SOUTHERN INTERCHANGE","description":null,"keyRequired":false,"streamSource":"http://167.21.72.35:1935/live/NCAM075.stream/playlist.m3u8","imageSrouce":null,"latitude":39.71703,"longitude":-75.558608,"status":true,"state":"DE","additional":"New Castle"},{"cameraID":"NCAM076","title":"DE48 @ DE141","description":null,"keyRequired":false,"streamSource":"http://167.21.72.35:1935/live/NCAM076.stream/playlist.m3u8","imageSrouce":null,"latitude":39.758771,"longitude":-75.604239,"status":true,"state":"DE","additional":"New Castle"},{"cameraID":"NCAM077","title":"CENTERVILLE RD & BOXWOOD RD","description":null,"keyRequired":false,"streamSource":"http://167.21.72.35:1935/live/NCAM077.stream/playlist.m3u8","imageSrouce":null,"latitude":39.725726,"longitude":-75.616565,"status":true,"state":"DE","additional":"New Castle"},{"cameraID":"NCAM078","title":"I-95 @ MARSH RD","description":null,"keyRequired":false,"streamSource":"http://167.21.72.35:1935/live/NCAM078.stream/playlist.m3u8","imageSrouce":null,"latitude":39.7801,"longitude":-75.5061,"status":true,"state":"DE","additional":"New Castle"},{"cameraID":"NCAM080","title":"I 95 @ I 95 NB OFF-RAMP TO HARVEY RD","description":null,"keyRequired":false,"streamSource":"http://167.21.72.35:1935/live/NCAM080.stream/playlist.m3u8","imageSrouce":null,"latitude":39.8027,"longitude":-75.4795,"status":true,"state":"DE","additional":"New Castle"},{"cameraID":"NCAM087","title":"SR 141 @ KIRKWOOD HIGHWAY","description":null,"keyRequired":false,"streamSource":"http://167.21.72.35:1935/live/NCAM087.stream/playlist.m3u8","imageSrouce":null,"latitude":39.737573,"longitude":-75.619947,"status":true,"state":"DE","additional":"New Castle"},{"cameraID":"NCAM088","title":"DE 141 @ DE 100","description":null,"keyRequired":false,"streamSource":"http://167.21.72.35:1935/live/NCAM088.stream/playlist.m3u8","imageSrouce":null,"latitude":39.773084,"longitude":-75.587316,"status":true,"state":"DE","additional":"New Castle"},{"cameraID":"NCAM089","title":"SR 1 @ US 13 (BLACKBIRD, N. OF SR71 H&H)","description":null,"keyRequired":false,"streamSource":"http://167.21.72.35:1935/live/NCAM089.stream/playlist.m3u8","imageSrouce":null,"latitude":39.3855,"longitude":-75.6647,"status":true,"state":"DE","additional":"New Castle"},{"cameraID":"NCAM096","title":"US 13 @ RD 381","description":null,"keyRequired":false,"streamSource":"http://167.21.72.35:1935/live/NCAM096.stream/playlist.m3u8","imageSrouce":null,"latitude":39.621247,"longitude":-75.641291,"status":true,"state":"DE","additional":"New Castle"},{"cameraID":"NCAM097","title":"SR 1 @ US 13 - SCOTT RUN (SOUTH OF C&D CANAL)","description":null,"keyRequired":false,"streamSource":"http://167.21.72.35:1935/live/NCAM097.stream/playlist.m3u8","imageSrouce":null,"latitude":39.5391,"longitude":-75.6491,"status":true,"state":"DE","additional":"New Castle"},{"cameraID":"NCAM100","title":"DE 896 @ RD 15","description":null,"keyRequired":false,"streamSource":"http://167.21.72.35:1935/live/NCAM100.stream/playlist.m3u8","imageSrouce":null,"latitude":39.511201,"longitude":-75.711291,"status":true,"state":"DE","additional":"New Castle"},{"cameraID":"NCAM104","title":"SR 896 @ SR 71 NORTH OF C&D CANAL","description":null,"keyRequired":false,"streamSource":"http://167.21.72.35:1935/live/NCAM104.stream/playlist.m3u8","imageSrouce":null,"latitude":39.560007,"longitude":-75.737348,"status":true,"state":"DE","additional":"New Castle"},{"cameraID":"NCAM105","title":"SR 896 @ BETHEL CHURCH RD (SB C&D CANAL)","description":null,"keyRequired":false,"streamSource":"http://167.21.72.35:1935/live/NCAM105.stream/playlist.m3u8","imageSrouce":null,"latitude":39.528796,"longitude":-75.736596,"status":true,"state":"DE","additional":"New Castle"},{"cameraID":"NCAM106","title":"DE 72 @ DE 1 S.B. OFF RMP","description":null,"keyRequired":false,"streamSource":"http://167.21.72.35:1935/live/NCAM106.stream/playlist.m3u8","imageSrouce":null,"latitude":39.580163,"longitude":-75.662451,"status":true,"state":"DE","additional":"New Castle"},{"cameraID":"NCAM107","title":"US 13 @ OLD STATE RD","description":null,"keyRequired":false,"streamSource":"http://167.21.72.35:1935/live/NCAM107.stream/playlist.m3u8","imageSrouce":null,"latitude":39.4221,"longitude":-75.6577,"status":true,"state":"DE","additional":"New Castle"},{"cameraID":"NCAM108","title":"DE 299 @ DE1 NB RMP","description":null,"keyRequired":false,"streamSource":"http://167.21.72.35:1935/live/NCAM108.stream/playlist.m3u8","imageSrouce":null,"latitude":39.4547,"longitude":-75.6755,"status":true,"state":"DE","additional":"New Castle"},{"cameraID":"NCAM113","title":"DE 141 @ DE 34","description":null,"keyRequired":false,"streamSource":"http://167.21.72.35:1935/live/NCAM113.stream/playlist.m3u8","imageSrouce":null,"latitude":39.747774,"longitude":-75.610011,"status":true,"state":"DE","additional":"New Castle"},{"cameraID":"NCAM114","title":"I 95 @ TOLL PLAZA SB","description":null,"keyRequired":false,"streamSource":"http://167.21.72.35:1935/live/NCAM114.stream/playlist.m3u8","imageSrouce":null,"latitude":39.644818,"longitude":-75.763514,"status":true,"state":"DE","additional":"New Castle"},{"cameraID":"NCAM115","title":"I-95 @ DE 896","description":null,"keyRequired":false,"streamSource":"http://167.21.72.35:1935/live/NCAM115.stream/playlist.m3u8","imageSrouce":null,"latitude":39.647049,"longitude":-75.746123,"status":true,"state":"DE","additional":"New Castle"},{"cameraID":"NCAM116","title":"I 95 @ REST STOP SB","description":null,"keyRequired":false,"streamSource":"http://167.21.72.35:1935/live/NCAM116.stream/playlist.m3u8","imageSrouce":null,"latitude":39.6632,"longitude":-75.6906,"status":true,"state":"DE","additional":"New Castle"},{"cameraID":"NCAM117","title":"I 95 NB @ SR 141","description":null,"keyRequired":false,"streamSource":"http://167.21.72.35:1935/live/NCAM117.stream/playlist.m3u8","imageSrouce":null,"latitude":39.6984,"longitude":-75.6011,"status":true,"state":"DE","additional":"New Castle"},{"cameraID":"NCAM118","title":"I 95 @ I 495 SPLIT","description":null,"keyRequired":false,"streamSource":"http://167.21.72.35:1935/live/NCAM118.stream/playlist.m3u8","imageSrouce":null,"latitude":39.71306,"longitude":-75.585859,"status":true,"state":"DE","additional":"New Castle"},{"cameraID":"NCAM121","title":"US 301 @ BUNKER HILL RD (MAIN ST)","description":null,"keyRequired":false,"streamSource":"http://167.21.72.35:1935/live/NCAM121.stream/playlist.m3u8","imageSrouce":null,"latitude":39.450239,"longitude":-75.728758,"status":true,"state":"DE","additional":"New Castle"},{"cameraID":"NCAM122","title":"US 301 @ SOUTH OF SR 299 SPLIT - MD LINE WEIGH STATION","description":null,"keyRequired":false,"streamSource":"http://167.21.72.35:1935/live/NCAM122.stream/playlist.m3u8","imageSrouce":null,"latitude":39.41952,"longitude":-75.76395,"status":true,"state":"DE","additional":"New Castle"},{"cameraID":"NCAM123","title":"US 13 @ NORTH SMYRNA RAMP FROM SR 1","description":null,"keyRequired":false,"streamSource":"http://167.21.72.35:1935/live/NCAM123.stream/playlist.m3u8","imageSrouce":null,"latitude":39.3299,"longitude":-75.6251,"status":true,"state":"DE","additional":"New Castle"},{"cameraID":"NCAM132","title":"DE 71 @ DE 72","description":null,"keyRequired":false,"streamSource":"http://167.21.72.35:1935/live/NCAM132.stream/playlist.m3u8","imageSrouce":null,"latitude":39.585214,"longitude":-75.684455,"status":true,"state":"DE","additional":"New Castle"},{"cameraID":"NCAM137","title":"I 95 @ I 95 SB OFF-RAMP TO SR 141 SB","description":null,"keyRequired":false,"streamSource":"http://167.21.72.35:1935/live/NCAM137.stream/playlist.m3u8","imageSrouce":null,"latitude":39.7061,"longitude":-75.6072,"status":true,"state":"DE","additional":"New Castle"},{"cameraID":"NCAM138","title":"9TH ST @ ADAMS STREET (N)","description":null,"keyRequired":false,"streamSource":"http://167.21.72.35:1935/live/NCAM138.stream/playlist.m3u8","imageSrouce":null,"latitude":39.748306,"longitude":-75.556882,"status":true,"state":"DE","additional":"New Castle"},{"cameraID":"NCAM139","title":"DE 2 @ OTTS CHAPEL RD","description":null,"keyRequired":false,"streamSource":"http://167.21.72.35:1935/live/NCAM139.stream/playlist.m3u8","imageSrouce":null,"latitude":39.657912,"longitude":-75.784611,"status":true,"state":"DE","additional":"New Castle"},{"cameraID":"NCAM140","title":"SR 896 & 281 S Old Balt Pike","description":null,"keyRequired":false,"streamSource":"http://167.21.72.35:1935/live/NCAM140.stream/playlist.m3u8","imageSrouce":null,"latitude":39.636049,"longitude":-75.74351,"status":true,"state":"DE","additional":"New Castle"},{"cameraID":"NCAM142","title":"US 13 @ DUCK CREEK RD","description":null,"keyRequired":false,"streamSource":"http://167.21.72.35:1935/live/NCAM142.stream/playlist.m3u8","imageSrouce":null,"latitude":39.324946,"longitude":-75.62198,"status":true,"state":"DE","additional":"New Castle"},{"cameraID":"NCAM149","title":"DE 7 @ VALLEY RD","description":null,"keyRequired":false,"streamSource":"http://167.21.72.35:1935/live/NCAM149.stream/playlist.m3u8","imageSrouce":null,"latitude":39.774897,"longitude":-75.715411,"status":true,"state":"DE","additional":"New Castle"},{"cameraID":"NCAM150","title":"DEL. RT. 141 & COMMONS BLVD.","description":null,"keyRequired":false,"streamSource":"http://167.21.72.35:1935/live/NCAM150.stream/playlist.m3u8","imageSrouce":null,"latitude":39.693859,"longitude":-75.599359,"status":true,"state":"DE","additional":"New Castle"},{"cameraID":"NCAM152","title":"ELKTON RD @ APPLE RD","description":null,"keyRequired":false,"streamSource":"http://167.21.72.35:1935/live/NCAM152.stream/playlist.m3u8","imageSrouce":null,"latitude":39.677664,"longitude":-75.762507,"status":true,"state":"DE","additional":"New Castle"},{"cameraID":"NCAM153","title":"MARTIN L. KING @ S JUSTISON ST./ SR 48","description":null,"keyRequired":false,"streamSource":"http://167.21.72.35:1935/live/NCAM153.stream/playlist.m3u8","imageSrouce":null,"latitude":39.73971,"longitude":-75.55669,"status":true,"state":"DE","additional":"New Castle"},{"cameraID":"NCAM154","title":"MD AVE @ 95 NB EXIT","description":null,"keyRequired":false,"streamSource":"http://167.21.72.35:1935/live/NCAM154.stream/playlist.m3u8","imageSrouce":null,"latitude":39.739422,"longitude":-75.562413,"status":true,"state":"DE","additional":"New Castle"},{"cameraID":"NCAM156","title":"CHRISTIANA MALL RAMP @ SR 1","description":null,"keyRequired":false,"streamSource":"http://167.21.72.35:1935/live/NCAM156.stream/playlist.m3u8","imageSrouce":null,"latitude":39.675909,"longitude":-75.65703,"status":true,"state":"DE","additional":"New Castle"},{"cameraID":"NCAM157","title":"SR 1 @ ROAD 336A","description":null,"keyRequired":false,"streamSource":"http://167.21.72.35:1935/live/NCAM157.stream/playlist.m3u8","imageSrouce":null,"latitude":39.673813,"longitude":-75.654761,"status":true,"state":"DE","additional":"New Castle"},{"cameraID":"NCAM158","title":"I 95 @ SR 7 RAMP WITH I 95 SB","description":null,"keyRequired":false,"streamSource":"http://167.21.72.35:1935/live/NCAM158.stream/playlist.m3u8","imageSrouce":null,"latitude":39.683873,"longitude":-75.657903,"status":true,"state":"DE","additional":"New Castle"},{"cameraID":"NCAM159","title":"US 13 @ BAYLOR BOULEVARD","description":null,"keyRequired":false,"streamSource":"http://167.21.72.35:1935/live/NCAM159.stream/playlist.m3u8","imageSrouce":null,"latitude":39.695063,"longitude":-75.576952,"status":true,"state":"DE","additional":"New Castle"},{"cameraID":"NCAM160","title":"SR 273 @ AIRPORT RD","description":null,"keyRequired":false,"streamSource":"http://167.21.72.35:1935/live/NCAM160.stream/playlist.m3u8","imageSrouce":null,"latitude":39.663148,"longitude":-75.639352,"status":true,"state":"DE","additional":"New Castle"},{"cameraID":"NCAM161","title":"US 202 @ RIGHTER PARKWAY","description":null,"keyRequired":false,"streamSource":"http://167.21.72.35:1935/live/NCAM161.stream/playlist.m3u8","imageSrouce":null,"latitude":39.813339,"longitude":-75.549725,"status":true,"state":"DE","additional":"New Castle"},{"cameraID":"NCAM162","title":"SR 2 @ SR 7","description":null,"keyRequired":false,"streamSource":"http://167.21.72.35:1935/live/NCAM162.stream/playlist.m3u8","imageSrouce":null,"latitude":39.723771,"longitude":-75.657687,"status":true,"state":"DE","additional":"New Castle"},{"cameraID":"NCAM163","title":"SR 1 @ NORTH OF SCHOOL BELL BR","description":null,"keyRequired":false,"streamSource":"http://167.21.72.35:1935/live/NCAM163.stream/playlist.m3u8","imageSrouce":null,"latitude":39.645296,"longitude":-75.650235,"status":true,"state":"DE","additional":"New Castle"},{"cameraID":"NCAM164","title":"SR 2 (KIRKWOOD HWY) @ DELAWARE","description":null,"keyRequired":false,"streamSource":"http://167.21.72.35:1935/live/NCAM164.stream/playlist.m3u8","imageSrouce":null,"latitude":39.714118,"longitude":-75.675027,"status":true,"state":"DE","additional":"New Castle"},{"cameraID":"NCAM165","title":"US 301 SB OFF-RAMP @ LEVELS RO","description":null,"keyRequired":false,"streamSource":"http://167.21.72.35:1935/live/NCAM165.stream/playlist.m3u8","imageSrouce":null,"latitude":39.44591,"longitude":-75.753155,"status":true,"state":"DE","additional":"New Castle"},{"cameraID":"NCAM166","title":"SR 72 @ OBP","description":null,"keyRequired":false,"streamSource":"http://167.21.72.35:1935/live/NCAM166.stream/playlist.m3u8","imageSrouce":null,"latitude":39.642422,"longitude":-75.729861,"status":true,"state":"DE","additional":"New Castle"},{"cameraID":"NCAM167","title":"SR 52 @ N ADAMS ST (CITY OF WI","description":null,"keyRequired":false,"streamSource":"http://167.21.72.35:1935/live/NCAM167.stream/playlist.m3u8","imageSrouce":null,"latitude":39.75109,"longitude":-75.554682,"status":true,"state":"DE","additional":"New Castle"},{"cameraID":"NCAM168","title":"E 4TH ST @ N WALNUT ST (CITY O","description":null,"keyRequired":false,"streamSource":"http://167.21.72.35:1935/live/NCAM168.stream/playlist.m3u8","imageSrouce":null,"latitude":39.739313,"longitude":-75.548559,"status":true,"state":"DE","additional":"New Castle"},{"cameraID":"NCAM170","title":"US 301 NORTHBOUND @ SR 896 (BO","description":null,"keyRequired":false,"streamSource":"http://167.21.72.35:1935/live/NCAM170.stream/playlist.m3u8","imageSrouce":null,"latitude":39.506322,"longitude":-75.692754,"status":true,"state":"DE","additional":"New Castle"},{"cameraID":"NCAM173","title":"US 301 SOUTHBOUND @ RAMP H & G","description":null,"keyRequired":false,"streamSource":"http://167.21.72.35:1935/live/NCAM173.stream/playlist.m3u8","imageSrouce":null,"latitude":39.475036,"longitude":-75.730401,"status":true,"state":"DE","additional":"New Castle"},{"cameraID":"NCAM174","title":"US 301 NORTHBOUND @ N. MIDDLET","description":null,"keyRequired":false,"streamSource":"http://167.21.72.35:1935/live/NCAM174.stream/playlist.m3u8","imageSrouce":null,"latitude":39.484097,"longitude":-75.721753,"status":true,"state":"DE","additional":"New Castle"},{"cameraID":"NCAM176","title":"US 40 @ PORTER RD","description":null,"keyRequired":false,"streamSource":"http://167.21.72.35:1935/live/NCAM176.stream/playlist.m3u8","imageSrouce":null,"latitude":39.618743,"longitude":-75.694705,"status":true,"state":"DE","additional":"New Castle"},{"cameraID":"NCAM178","title":"SR 4 @ SR 72","description":null,"keyRequired":false,"streamSource":"http://167.21.72.35:1935/live/NCAM178.stream/playlist.m3u8","imageSrouce":null,"latitude":39.661437,"longitude":-75.735768,"status":true,"state":"DE","additional":"New Castle"},{"cameraID":"NCAM183","title":"E MAIN ST (SR 273) @ THE GREEN","description":null,"keyRequired":false,"streamSource":"http://167.21.72.35:1935/live/NCAM183.stream/playlist.m3u8","imageSrouce":null,"latitude":39.683092,"longitude":-75.752368,"status":true,"state":"DE","additional":"New Castle"},{"cameraID":"NCAM185","title":"E MAIN ST @ POMEROY LANE (TRAI","description":null,"keyRequired":false,"streamSource":"http://167.21.72.35:1935/live/NCAM185.stream/playlist.m3u8","imageSrouce":null,"latitude":39.683737,"longitude":-75.744309,"status":true,"state":"DE","additional":"New Castle"},{"cameraID":"NCAM188","title":"SR 72 @ PORTER ROAD","description":null,"keyRequired":false,"streamSource":"http://167.21.72.35:1935/live/NCAM188.stream/playlist.m3u8","imageSrouce":null,"latitude":39.593346,"longitude":-75.699159,"status":true,"state":"DE","additional":"New Castle"},{"cameraID":"NCAM189","title":"SR 896 @ PORTER ROAD","description":null,"keyRequired":false,"streamSource":"http://167.21.72.35:1935/live/NCAM189.stream/playlist.m3u8","imageSrouce":null,"latitude":39.587354,"longitude":-75.740172,"status":true,"state":"DE","additional":"New Castle"},{"cameraID":"NCAM190","title":"SR 2 @ E CLEVELAND AVE/WOODLAW","description":null,"keyRequired":false,"streamSource":"http://167.21.72.35:1935/live/NCAM190.stream/playlist.m3u8","imageSrouce":null,"latitude":39.686592,"longitude":-75.735982,"status":true,"state":"DE","additional":"New Castle"},{"cameraID":"NCAM196","title":"SR 4 @ ALBAN DRIVE","description":null,"keyRequired":false,"streamSource":"http://167.21.72.35:1935/live/NCAM196.stream/playlist.m3u8","imageSrouce":null,"latitude":39.73401,"longitude":-75.575476,"status":true,"state":"DE","additional":"New Castle"},{"cameraID":"NCAM197","title":"LANCASTER AVE @ JACKSON ST","description":null,"keyRequired":false,"streamSource":"http://167.21.72.35:1935/live/NCAM197.stream/playlist.m3u8","imageSrouce":null,"latitude":39.741844,"longitude":-75.562441,"status":true,"state":"DE","additional":"New Castle"},{"cameraID":"NCAM198","title":"4TH ST @ WASHINGTON ST","description":null,"keyRequired":false,"streamSource":"http://167.21.72.35:1935/live/NCAM198.stream/playlist.m3u8","imageSrouce":null,"latitude":39.742087,"longitude":-75.55528,"status":true,"state":"DE","additional":"New Castle"},{"cameraID":"NCAM199","title":"4TH ST @ ADAMS ST","description":null,"keyRequired":false,"streamSource":"http://167.21.72.35:1935/live/NCAM199.stream/playlist.m3u8","imageSrouce":null,"latitude":39.743893,"longitude":-75.559707,"status":true,"state":"DE","additional":"New Castle"},{"cameraID":"NCAM200","title":"LANCASTER AVE @ BROOM ST","description":null,"keyRequired":false,"streamSource":"http://167.21.72.35:1935/live/NCAM200.stream/playlist.m3u8","imageSrouce":null,"latitude":39.74392,"longitude":-75.567394,"status":true,"state":"DE","additional":"New Castle"},{"cameraID":"NCAM201","title":"2ND ST @ KING ST","description":null,"keyRequired":false,"streamSource":"http://167.21.72.35:1935/live/NCAM201.stream/playlist.m3u8","imageSrouce":null,"latitude":39.738367,"longitude":-75.551519,"status":true,"state":"DE","additional":"New Castle"},{"cameraID":"PCAM4017","title":"95 MEDIAN 1 MI N/O RT 896","description":null,"keyRequired":false,"streamSource":"http://167.21.72.35:1935/live/PCAM4017.stream/playlist.m3u8","imageSrouce":null,"latitude":39.650747,"longitude":-75.722523,"status":true,"state":"DE","additional":"New Castle"},{"cameraID":"PCAM4018","title":"95 MEDIAN 1.5 MI N/O RT 896","description":null,"keyRequired":false,"streamSource":"http://167.21.72.35:1935/live/PCAM4018.stream/playlist.m3u8","imageSrouce":null,"latitude":39.652317,"longitude":-75.714927,"status":true,"state":"DE","additional":"New Castle"},{"cameraID":"PCAM4061","title":"US 113 S/O DE 16","description":null,"keyRequired":false,"streamSource":"http://167.21.72.35:1935/live/PCAM4061.stream/playlist.m3u8","imageSrouce":null,"latitude":38.80407,"longitude":-75.43881,"status":true,"state":"DE","additional":"Sussex"},{"cameraID":"PCAM4064","title":"RT 1 MEDIAN @ JOSEPHINE ST","description":null,"keyRequired":false,"streamSource":"http://167.21.72.35:1935/live/PCAM4064.stream/playlist.m3u8","imageSrouce":null,"latitude":38.70233,"longitude":-75.08249,"status":true,"state":"DE","additional":"Sussex"},{"cameraID":"PCAM4068","title":"DE-141 / N OF JAY DR","description":null,"keyRequired":false,"streamSource":"http://167.21.72.35:1935/live/PCAM4068.stream/playlist.m3u8","imageSrouce":null,"latitude":39.68808,"longitude":-75.59561,"status":true,"state":"DE","additional":"New Castle"},{"cameraID":"PCAM4974","title":"US 113 N/O RT 16","description":null,"keyRequired":false,"streamSource":"http://167.21.72.35:1935/live/PCAM4974.stream/playlist.m3u8","imageSrouce":null,"latitude":38.81114,"longitude":-75.43899,"status":true,"state":"DE","additional":"Sussex"},{"cameraID":"SCAM001","title":"DE 1 @ DE 54","description":null,"keyRequired":false,"streamSource":"http://167.21.72.35:1935/live/SCAM001.stream/playlist.m3u8","imageSrouce":null,"latitude":38.452241,"longitude":-75.052019,"status":true,"state":"DE","additional":"Sussex"},{"cameraID":"SCAM002","title":"DE 1 @ DE 26","description":null,"keyRequired":false,"streamSource":"http://167.21.72.35:1935/live/SCAM002.stream/playlist.m3u8","imageSrouce":null,"latitude":38.538401,"longitude":-75.059042,"status":true,"state":"DE","additional":"Sussex"},{"cameraID":"SCAM003","title":"DE 1 @ US 9","description":null,"keyRequired":false,"streamSource":"http://167.21.72.35:1935/live/SCAM003.stream/playlist.m3u8","imageSrouce":null,"latitude":38.748216,"longitude":-75.173495,"status":true,"state":"DE","additional":"Sussex"},{"cameraID":"SCAM004","title":"SR 26 @ SR 17","description":null,"keyRequired":false,"streamSource":"http://167.21.72.35:1935/live/SCAM004.stream/playlist.m3u8","imageSrouce":null,"latitude":38.550665,"longitude":-75.131553,"status":true,"state":"DE","additional":"Sussex"},{"cameraID":"SCAM009","title":"DE 1 @ DE 1A","description":null,"keyRequired":false,"streamSource":"http://167.21.72.35:1935/live/SCAM009.stream/playlist.m3u8","imageSrouce":null,"latitude":38.697707,"longitude":-75.075627,"status":true,"state":"DE","additional":"Sussex"},{"cameraID":"SCAM010","title":"DE 1 @ DE 1A REHOBOTH","description":null,"keyRequired":false,"streamSource":"http://167.21.72.35:1935/live/SCAM010.stream/playlist.m3u8","imageSrouce":null,"latitude":38.71252,"longitude":-75.101443,"status":true,"state":"DE","additional":"Sussex"},{"cameraID":"SCAM011","title":"DE 1 @ DE 24","description":null,"keyRequired":false,"streamSource":"http://167.21.72.35:1935/live/SCAM011.stream/playlist.m3u8","imageSrouce":null,"latitude":38.731836,"longitude":-75.133573,"status":true,"state":"DE","additional":"Sussex"},{"cameraID":"SCAM012","title":"DE 1 @ RD 268A","description":null,"keyRequired":false,"streamSource":"http://167.21.72.35:1935/live/SCAM012.stream/playlist.m3u8","imageSrouce":null,"latitude":38.745057,"longitude":-75.153419,"status":true,"state":"DE","additional":"Sussex"},{"cameraID":"SCAM013","title":"SR 1 @ COLLINS ST (DEWEY BEACH)","description":null,"keyRequired":false,"streamSource":"http://167.21.72.35:1935/live/SCAM013.stream/playlist.m3u8","imageSrouce":null,"latitude":38.680499,"longitude":-75.071786,"status":true,"state":"DE","additional":"Sussex"},{"cameraID":"SCAM014","title":"SR 1 @ CAMELOT","description":null,"keyRequired":false,"streamSource":"http://167.21.72.35:1935/live/SCAM014.stream/playlist.m3u8","imageSrouce":null,"latitude":38.721363,"longitude":-75.120926,"status":true,"state":"DE","additional":"Sussex"},{"cameraID":"SCAM082","title":"US 113 @ US 9","description":null,"keyRequired":false,"streamSource":"http://167.21.72.35:1935/live/SCAM082.stream/playlist.m3u8","imageSrouce":null,"latitude":38.681856,"longitude":-75.396041,"status":true,"state":"DE","additional":"Sussex"},{"cameraID":"SCAM083","title":"HIGH ST @ FRONT ST","description":null,"keyRequired":false,"streamSource":"http://167.21.72.35:1935/live/SCAM083.stream/playlist.m3u8","imageSrouce":null,"latitude":38.642281,"longitude":-75.609041,"status":true,"state":"DE","additional":"Sussex"},{"cameraID":"SCAM084","title":"US 113 @ DE 24","description":null,"keyRequired":false,"streamSource":"http://167.21.72.35:1935/live/SCAM084.stream/playlist.m3u8","imageSrouce":null,"latitude":38.585411,"longitude":-75.295312,"status":true,"state":"DE","additional":"Sussex"},{"cameraID":"SCAM085","title":"US 113 @ RD 334","description":null,"keyRequired":false,"streamSource":"http://167.21.72.35:1935/live/SCAM085.stream/playlist.m3u8","imageSrouce":null,"latitude":38.566357,"longitude":-75.27834,"status":true,"state":"DE","additional":"Sussex"},{"cameraID":"SCAM093","title":"DE 26 @ RD 357","description":null,"keyRequired":false,"streamSource":"http://167.21.72.35:1935/live/SCAM093.stream/playlist.m3u8","imageSrouce":null,"latitude":38.544329,"longitude":-75.090855,"status":true,"state":"DE","additional":"Sussex"},{"cameraID":"SCAM094","title":"US 113 @ DE 18","description":null,"keyRequired":false,"streamSource":"http://167.21.72.35:1935/live/SCAM094.stream/playlist.m3u8","imageSrouce":null,"latitude":38.698504,"longitude":-75.400978,"status":true,"state":"DE","additional":"Sussex"},{"cameraID":"SCAM095","title":"US 13 @ DE 404","description":null,"keyRequired":false,"streamSource":"http://167.21.72.35:1935/live/SCAM095.stream/playlist.m3u8","imageSrouce":null,"latitude":38.723229,"longitude":-75.590242,"status":true,"state":"DE","additional":"Sussex"},{"cameraID":"SCAM098","title":"SR 1 @ INDIAN RIVER BRIDGE INLET - NORTH","description":null,"keyRequired":false,"streamSource":"http://167.21.72.35:1935/live/SCAM098.stream/playlist.m3u8","imageSrouce":null,"latitude":38.6154,"longitude":-75.0658,"status":true,"state":"DE","additional":"Sussex"},{"cameraID":"SCAM099","title":"SR 1 @ INDIAN RIVER BRIDGE INLET - SOUTH","description":null,"keyRequired":false,"streamSource":"http://167.21.72.35:1935/live/SCAM099.stream/playlist.m3u8","imageSrouce":null,"latitude":38.6015,"longitude":-75.062,"status":true,"state":"DE","additional":"Sussex"},{"cameraID":"SCAM101","title":"SR 54 @ SR 20","description":null,"keyRequired":false,"streamSource":"http://167.21.72.35:1935/live/SCAM101.stream/playlist.m3u8","imageSrouce":null,"latitude":38.4705,"longitude":-75.114787,"status":true,"state":"DE","additional":"Sussex"},{"cameraID":"SCAM112","title":"US 13 @ RD 534","description":null,"keyRequired":false,"streamSource":"http://167.21.72.35:1935/live/SCAM112.stream/playlist.m3u8","imageSrouce":null,"latitude":38.66072,"longitude":-75.594131,"status":true,"state":"DE","additional":"Sussex"},{"cameraID":"SCAM130","title":"US 13 @ DE 20 NORTH","description":null,"keyRequired":false,"streamSource":"http://167.21.72.35:1935/live/SCAM130.stream/playlist.m3u8","imageSrouce":null,"latitude":38.652834,"longitude":-75.594614,"status":true,"state":"DE","additional":"Sussex"},{"cameraID":"SCAM133","title":"US 113 @ CENTERVIEW DR","description":null,"keyRequired":false,"streamSource":"http://167.21.72.35:1935/live/SCAM133.stream/playlist.m3u8","imageSrouce":null,"latitude":38.572,"longitude":-75.2837,"status":true,"state":"DE","additional":"Sussex"},{"cameraID":"SCAM135","title":"DE 1A @ CHURCH ST","description":null,"keyRequired":false,"streamSource":"http://167.21.72.35:1935/live/SCAM135.stream/playlist.m3u8","imageSrouce":null,"latitude":38.71358,"longitude":-75.096618,"status":true,"state":"DE","additional":"Sussex"},{"cameraID":"SCAM146","title":"DE 1 @ JAMES ST","description":null,"keyRequired":false,"streamSource":"http://167.21.72.35:1935/live/SCAM146.stream/playlist.m3u8","imageSrouce":null,"latitude":38.465266,"longitude":-75.051941,"status":true,"state":"DE","additional":"Sussex"},{"cameraID":"SCAM148","title":"DE 1 @ DE 30","description":null,"keyRequired":false,"streamSource":"http://167.21.72.35:1935/live/SCAM148.stream/playlist.m3u8","imageSrouce":null,"latitude":38.891291,"longitude":-75.388098,"status":true,"state":"DE","additional":"Sussex"},{"cameraID":"SCAM155","title":"US 113 @ ARROW SAFETY RD","description":null,"keyRequired":false,"streamSource":"http://167.21.72.35:1935/live/SCAM155.stream/playlist.m3u8","imageSrouce":null,"latitude":38.671,"longitude":-75.3857,"status":true,"state":"DE","additional":"Sussex"},{"cameraID":"SCAM161","title":"PRIMEHOOK RD @ SNOW GOOSE RD","description":null,"keyRequired":false,"streamSource":"http://167.21.72.35:1935/live/SCAM161.stream/playlist.m3u8","imageSrouce":null,"latitude":38.855187,"longitude":-75.244138,"status":true,"state":"DE","additional":"Sussex"},{"cameraID":"SCAM162","title":"SR 1 @ SR 16","description":null,"keyRequired":false,"streamSource":"http://167.21.72.35:1935/live/SCAM162.stream/playlist.m3u8","imageSrouce":null,"latitude":38.804267,"longitude":-75.272419,"status":true,"state":"DE","additional":"Sussex"},{"cameraID":"SCAM164","title":"US 113 @ FITZGERALD RD/JOHNS","description":null,"keyRequired":false,"streamSource":"http://167.21.72.35:1935/live/SCAM164.stream/playlist.m3u8","imageSrouce":null,"latitude":38.869326,"longitude":-75.439703,"status":true,"state":"DE","additional":"Sussex"},{"cameraID":"SCAM165","title":"US 113 @ SR 26","description":null,"keyRequired":false,"streamSource":"http://167.21.72.35:1935/live/SCAM165.stream/playlist.m3u8","imageSrouce":null,"latitude":38.541618,"longitude":-75.257364,"status":true,"state":"DE","additional":"Sussex"},{"cameraID":"SCAM166","title":"US 113 @ SR 16","description":null,"keyRequired":false,"streamSource":"http://167.21.72.35:1935/live/SCAM166.stream/playlist.m3u8","imageSrouce":null,"latitude":38.806413,"longitude":-75.439001,"status":true,"state":"DE","additional":"Sussex"},{"cameraID":"SCAM169","title":"DE 1 @ IRIB SOUTH PYLON TOP","description":null,"keyRequired":false,"streamSource":"http://167.21.72.35:1935/live/SCAM169.stream/playlist.m3u8","imageSrouce":null,"latitude":38.607766,"longitude":-75.06355,"status":true,"state":"DE","additional":"Sussex"},{"cameraID":"SCAM170","title":"DE 1 @ IRIB NORTH PYLON TOP","description":null,"keyRequired":false,"streamSource":"http://167.21.72.35:1935/live/SCAM170.stream/playlist.m3u8","imageSrouce":null,"latitude":38.609703,"longitude":-75.064344,"status":true,"state":"DE","additional":"Sussex"},{"cameraID":"SCAM174","title":"US 9 @ SR 5","description":null,"keyRequired":false,"streamSource":"http://167.21.72.35:1935/live/SCAM174.stream/playlist.m3u8","imageSrouce":null,"latitude":38.725011,"longitude":-75.285423,"status":true,"state":"DE","additional":"Sussex"},{"cameraID":"SCAM179","title":"EB SR 24 @ STATE ST","description":null,"keyRequired":false,"streamSource":"http://167.21.72.35:1935/live/SCAM179.stream/playlist.m3u8","imageSrouce":null,"latitude":38.591743,"longitude":-75.291297,"status":true,"state":"DE","additional":"Sussex"},{"cameraID":"SCAM180","title":"WB SR 24 @ STATE ST","description":null,"keyRequired":false,"streamSource":"http://167.21.72.35:1935/live/SCAM180.stream/playlist.m3u8","imageSrouce":null,"latitude":38.591927,"longitude":-75.291938,"status":true,"state":"DE","additional":"Sussex"},{"cameraID":"92A","title":"I-295 SB Entering DE exiting the DMB","description":null,"keyRequired":false,"streamSource":"http://8.43.23.19:1935/live/92A.stream/playlist.m3u8","imageSrouce":null,"latitude":39.696266,"longitude":-75.561247,"status":true,"state":"DE","additional":"New Castle"},{"cameraID":"83A","title":"I-295 NB Entering the DMB","description":null,"keyRequired":false,"streamSource":"http://8.43.23.19:1935/live/83A.stream/playlist.m3u8","imageSrouce":null,"latitude":39.696081,"longitude":-75.562501,"status":true,"state":"DE","additional":"New Castle"},{"cameraID":"GANTRY20","title":"I-295 NB Entering NJ exiting the DMB","description":null,"keyRequired":false,"streamSource":"http://8.43.23.19:1935/live/gantry20.stream/playlist.m3u8","imageSrouce":null,"latitude":39.682575,"longitude":-75.500991,"status":true,"state":"DE","additional":"New Castle"},{"cameraID":"GANTRY0NE","title":"I-295 SB Entering the DMB","description":null,"keyRequired":false,"streamSource":"http://8.43.23.19:1935/live/Gantry0ne.stream/playlist.m3u8","imageSrouce":null,"latitude":39.681767,"longitude":-75.496487,"status":true,"state":"DE","additional":"New Castle"},{"cameraID":"GANTRY10","title":"Toll Plaza Entrance @ DMB","description":null,"keyRequired":false,"streamSource":"http://8.43.23.19:1935/live/gantry10.stream/playlist.m3u8","imageSrouce":null,"latitude":39.695761,"longitude":-75.540549,"status":true,"state":"DE","additional":"New Castle"},{"cameraID":"TOLLPLAZAFRONT","title":"Exiting Toll Plaza @ DMB","description":null,"keyRequired":false,"streamSource":"http://8.43.23.19:1935/live/TollplazaFront.stream/playlist.m3u8","imageSrouce":null,"latitude":39.696206,"longitude":-75.545437,"status":true,"state":"DE","additional":"New Castle"},{"cameraID":"FREEMANHIGHWAY","title":"Freeman Highway & Monroe St","description":null,"keyRequired":false,"streamSource":"http://8.43.23.19:1935/live/FreemanHighway.stream/playlist.m3u8","imageSrouce":null,"latitude":38.771106,"longitude":-75.135453,"status":true,"state":"DE","additional":"Sussex"}] }